citycode,adname,tag,timestamp,address,name,location,rating,lng,lat
2728,潜江市,宵夜,2022/12/30 9:16,张金镇齐力大道1号,嘉裕花园酒店(潜江张金镇店),"112.602019,30.197308",3,112.602019,30.197308
728,仙桃市,自助早餐,2022/12/30 17:11,仙桃大道66号(近武商仙桃购物中心),凤凰酒店(仙桃大道),"113.457036,30.360619",3.1,113.457036,30.360619
27,洪山区,小吃街,2022/12/30 9:04,桂元路202号(华中师范大学南门多芬艺术隔壁),武汉豆丁酒店(华中师范大学店),"114.358052,30.512760",3.5,114.358052,30.51276
728,仙桃市,小吃街,2022/12/30 17:15,复州大道16号(近仙桃商城大厦),仙桃纽芬兰时尚酒店(西桥店),"113.432548,30.372658",3.6,113.432548,30.372658
717,伍家岗区,其他,2022/12/30 9:36,中南路西,泰禾商务酒店,"111.333400,30.682080",3.6,111.3334,30.68208
716,荆州区,宵夜,2022/12/31 0:14,关沮镇荆沙大道两湖绿谷2楼行政楼,两湖西联酒店,"112.239916,30.354365",3.7,112.239916,30.354365
712,孝南区,小吃街,2022/12/30 22:41,南方国际C2栋5-7层,孝感志诚商务宾馆,"113.934227,30.896211",3.7,113.934227,30.896211
27,洪山区,自助早餐,2022/12/31 0:20,佛祖岭东街一号烽云慧城小区8栋,武汉烽云慧城精品酒店,"114.483539,30.467078",3.7,114.483539,30.467078
718,宣恩县,自助早餐,2022/12/30 9:20,珠山镇建设路6号(新欣商城旁),宣恩新欣大酒店,"109.482568,29.989953",3.8,109.482568,29.989953
718,巴东县,自助早餐,2022/12/30 9:01,野三关发展大道39号,巴东峡州野三关国际大酒店,"110.324353,30.627185",3.8,110.324353,30.627185
2728,潜江市,自助餐,2022/12/30 8:41,潜江经济开发区章华南路万豪假日酒店旁马家台小区61号,潜江万豪假日酒店,"112.900231,30.391500",3.8,112.900231,30.3915
728,仙桃市,自助早餐,2022/12/30 9:48,纺织大道1号仙桃收费站高速入口,金港湾大酒店(宏达路辅路),"113.427459,30.343896",3.8,113.427459,30.343896
710,襄城区,其他,2022/12/30 9:10,双湖路(广电中心西侧),楚汉香大酒店,"112.112721,32.005533",3.8,112.112721,32.005533
718,巴东县,自助早餐,2022/12/30 9:51,野三关镇沪蓉大道666号(巴东县民族医院旁),巴人之都大酒店,"110.333934,30.622774",3.9,110.333934,30.622774
713,黄州区,自助早餐,2022/12/30 11:14,桃源街109号,黄冈天悦宾馆,"114.999447,30.435128",3.9,114.999447,30.435128
719,茅箭区,小吃街,2022/12/31 0:28,人民南路7号,十堰长泰酒店(三堰人民南路客运站店),"110.779966,32.626338",3.9,110.779966,32.626338
27,黄陂区,自助早餐,2022/12/31 0:18,横店街金泽雅都商业单元3层,雅斯特酒店(武汉天河机场横店街店),"114.294751,30.798906",3.9,114.294751,30.798906
27,东西湖区,自助早餐,2022/12/30 9:05,田园大道101号智能科技综合大楼11-13层,武汉升华商务酒店,"114.106157,30.621854",3.9,114.106157,30.621854
27,洪山区,自助早餐,2022/12/31 0:24,"江盛路108号(列电小区旁,农家小院武昌店旁)",德汉豪泰酒店(武汉白沙洲烽火村地铁站店),"114.294188,30.507026",3.9,114.294188,30.507026
27,武昌区,小吃街,2022/12/31 0:17,紫阳东路万金国际广场B楼(武昌火车站地铁D出口),77连锁酒店(武昌火车站店),"114.317062,30.531211",3.9,114.317062,30.531211
27,汉阳区,自助早餐,2022/12/30 9:04,马鹦路161号,中青假日酒店(鹦鹉大道店),"114.250829,30.538142",3.9,114.250829,30.538142
728,仙桃市,自助早餐,2022/12/31 0:23,沔阳大道75号,海凡星华冠酒店,"113.458355,30.369164",3.9,113.458355,30.369164
718,利川市,自助早餐,2022/12/31 0:22,滨江路教场村2组(近蓝色水岸),半岛丽景酒店,"108.953630,30.286444",4,108.95363,30.286444
718,恩施市,自助早餐,2022/12/30 11:57,旗峰大道274号,恩施土司王朝大酒店,"109.472820,30.309138",4,109.47282,30.309138
718,利川市,自助早餐,2022/12/31 0:31,南环大道56号,鑫源宾馆(南环大道),"108.942965,30.280143",4,108.942965,30.280143
2728,潜江市,宵夜,2022/12/30 6:27,章华中路51号,潜江大酒店,"112.898105,30.420866",4,112.898105,30.420866
719,张湾区,自助餐,2022/12/30 4:06,车城西路249号(红卫转盘处),泊岸SOHO酒店,"110.736514,32.641962",4,110.736514,32.641962
1728,天门市,小吃街,2022/12/30 17:14,"竟陵大道鸿渐路天门日报对面,近陆羽广场",V9城市客栈(天门陆羽广场店),"113.169901,30.661470",4,113.169901,30.66147
27,武昌区,自助早餐,2022/12/31 0:19,徐东大街3号,武汉华怡酒店,"114.340541,30.593113",4,114.340541,30.593113
27,江汉区,自助早餐,2022/12/30 9:03,发展大道213号(范湖地铁站J口步行450米),锦江之星(武汉汉口火车站店),"114.263895,30.616839",4,114.263895,30.616839
27,黄陂区,自助早餐,2022/12/30 9:07,横店街道园春街111号益丰大药房左侧巷子内,武汉祥和宾馆,"114.295908,30.801995",4,114.295908,30.801995
27,江岸区,自助早餐,2022/12/31 0:09,洞庭街34号金花之星酒店,金花之星酒店(江汉路步行街江滩店),"114.298477,30.582178",4,114.298477,30.582178
728,仙桃市,自助早餐,2022/12/30 20:52,仙桃大道中段64号(钱沟路交汇处)武商仙桃购物中心,怡家国际酒店(仙桃武商店),"113.456077,30.360377",4,113.456077,30.360377
717,猇亭区,其他,2022/12/31 0:22,猇亭大道12号,虹桥假日酒店,"111.402362,30.569047",4,111.402362,30.569047
718,宣恩县,自助早餐,2022/12/30 8:27,兴隆大道172号(近文澜桥),宣恩摆手源国际大酒店,"109.497513,29.990158",4.1,109.497513,29.990158
718,咸丰县,自助早餐,2022/12/31 0:25,解放路323号(近人民医院),乐山大酒店,"109.152243,29.681283",4.1,109.152243,29.681283
716,沙市区,宵夜,2022/12/31 0:29,沙隆达广场东侧,速8酒店(荆州沙隆达广场店),"112.249848,30.308282",4.1,112.249848,30.308282
716,沙市区,宵夜,2022/12/30 7:38,武德路观邸商业18号,茉莉花开连锁酒店(荆州武德路万达广场店),"112.229705,30.341868",4.1,112.229705,30.341868
2728,潜江市,宵夜,2022/12/31 0:13,湖滨路11号,潜江宾馆,"112.888718,30.424465",4.1,112.888718,30.424465
27,江夏区,自助早餐,2022/12/30 9:04,金口街金水闸金水农场医院对面,武汉金铃宾馆,"114.133399,30.298173",4.1,114.133399,30.298173
2728,潜江市,宵夜,2022/12/31 0:15,建设街88号,潜江钻石国际大酒店,"112.893270,30.423463",4.2,112.89327,30.423463
1728,天门市,小吃街,2022/12/30 8:39,接官路90号,海凡星世贸酒店,"113.156424,30.640021",4.2,113.156424,30.640021
27,江汉区,自助早餐,2022/12/30 9:06,前进四路227号花样年华大厦1层3室,希尔曼咖啡花园酒店(武汉亚心医院店),"114.283326,30.582292",4.2,114.283326,30.582292
27,江汉区,自助早餐,2022/12/31 0:10,发展大道176号(汉口火车站地铁站D1口步行90米),橙子水晶连锁酒店(武汉汉口火车站店),"114.254270,30.613518",4.2,114.25427,30.613518
27,黄陂区,自助早餐,2022/12/30 9:04,前川街金堂街75号,恒8连锁酒店(武汉木兰广场店),"114.367608,30.878425",4.2,114.367608,30.878425
27,江岸区,自助早餐,2022/12/30 9:04,香港路109号(苗栗路地铁站C口步行120米),香缘酒店(武汉儿童医院店),"114.288883,30.600325",4.2,114.288883,30.600325
27,江夏区,小吃街,2022/12/30 9:07,东湖开发区流芳园横路3号(武汉天马微电子对面),城市便捷酒店(武汉光谷二路流芳店),"114.446543,30.460385",4.2,114.446543,30.460385
27,武昌区,自助早餐,2022/12/30 6:37,南湖花园城瑞安街271号,武汉鑫瑞达商务酒店,"114.323331,30.513247",4.2,114.323331,30.513247
710,枣阳市,其他,2022/12/30 15:01,人民路44号,嘉禾大酒店(人民路店),"112.774014,32.121614",4.2,112.774014,32.121614
718,利川市,自助早餐,2022/12/30 13:42,东城街道办事处新桥社区七组1号,利川麓岛国际酒店,"108.964736,30.296719",4.3,108.964736,30.296719
719,茅箭区,小吃街,2022/12/30 16:56,人民北路53号(五堰步行街正对面),美乐宾馆(五堰店),"110.784705,32.642840",2,110.784705,32.64284
719,茅箭区,小吃街,2022/12/31 0:27,东岳路7号(五堰立交桥侧),十堰神州行商务宾馆,"110.782067,32.640550",2.5,110.782067,32.64055
1728,天门市,小吃街,2022/12/31 0:13,竟陵镇东湖路6号,君佳东湖酒店,"113.170422,30.652746",3,113.170422,30.652746
27,武昌区,自助早餐,2022/12/30 9:02,武珞路576号(宝通寺地铁站A口步行280米),莫泰酒店(武汉武珞路中南宝通寺地铁站店),"114.337287,30.531333",2.9,114.337287,30.531333
27,洪山区,自助早餐,2022/12/31 0:16,珞狮南路320号(金地西岸故事旁)近理工大学,雅斯特酒店(武汉华中农业大学店),"114.338534,30.483529",2.9,114.338534,30.483529
728,仙桃市,自助早餐,2022/12/31 0:16,"仙桃大道48-12号(汪洲桥桥头,步行街斜对面)",城市便捷酒店(仙桃大道店),"113.451131,30.360494",2.9,113.451131,30.360494
710,樊城区,其他,2022/12/30 15:58,万达广场步行街万紫千红写字楼1层,盛景怡家酒店(襄阳万达广场店),"112.132976,32.064224",2.9,112.132976,32.064224
717,夷陵区,其他,2022/12/31 0:17,兴安社区百花二巷3号,7天优品酒店(宜昌夷陵店),"111.322750,30.767823",2.9,111.32275,30.767823
716,荆州区,宵夜,2022/12/31 0:18,景明观路4号,致馨栀子花开酒店(荆州草市百富店),"112.232545,30.349616",2.6,112.232545,30.349616
2728,潜江市,自助餐,2022/12/31 0:18,红梅路88号,章华花苑酒店,"112.891302,30.401625",2.3,112.891302,30.401625
1719,神农架林区,自助餐,2022/12/31 0:18,"松柏镇沿河路,神农大道159号",神农架一品楼宾馆,"110.673604,31.743237",2.9,110.673604,31.743237
27,武昌区,小吃街,2022/12/31 0:23,团结路12号(秦园路103号佳馨花园小区),速8酒店(武汉徐家棚地铁站店),"114.338032,30.585930",2.9,114.338032,30.58593
27,江岸区,自助早餐,2022/12/30 9:08,胜利街168号扶轮大厦1-3楼,城市便捷酒店(武汉汉口江滩店),"114.300827,30.590128",2.9,114.300827,30.590128
27,武昌区,自助早餐,2022/12/31 0:13,首义路街办事处火车站万金国际广场1号楼4楼,福缘百合连锁酒店(武汉武昌火车站店),"114.317320,30.532211",2.9,114.31732,30.532211
27,武昌区,自助早餐,2022/12/30 9:06,水果湖街办事处水果湖惠明路3号附6号,武汉鑫梦酒店(楚河汉街店),"114.347788,30.548111",4.4,114.347788,30.548111
27,东西湖区,自助早餐,2022/12/30 9:06,"径河街银柏路68号,近径河工商所",武汉径河酒店,"114.173991,30.685457",4.4,114.173991,30.685457
728,仙桃市,自助早餐,2022/12/31 0:18,钱沟南路88号(吴刚酒楼旁),沔街国际大酒店,"113.457238,30.350912",4.4,113.457238,30.350912
717,西陵区,其他,2022/12/30 18:35,云集路27号1、11-24层,宜昌美邻私人酒店,"111.290529,30.696971",4.4,111.290529,30.696971
718,恩施市,自助早餐,2022/12/30 10:00,舞阳大道182号,恩施三江宾馆,"109.491170,30.277199",4.5,109.49117,30.277199
713,黄州区,自助早餐,2022/12/30 20:15,赤壁二路8号,觅·青年树酒店(黄冈万达广场店),"114.900602,30.464141",4.5,114.900602,30.464141
719,茅箭区,小吃街,2022/12/31 0:20,朝阳中路79号-1,十堰左岸酒店,"110.778711,32.632989",4.5,110.778711,32.632989
27,洪山区,自助早餐,2022/12/31 0:21,东湖生态旅游风景区东湖庭园9栋,城市便捷酒店(武汉欢乐谷店),"114.381038,30.590041",4.5,114.381038,30.590041
27,洪山区,自助早餐,2022/12/30 9:04,珞瑜东路与文园路交叉口东南角,武汉东谷商务宾馆,"114.434331,30.505210",4.5,114.434331,30.50521
710,樊城区,其他,2022/12/31 0:12,长征路173号,维也纳智好酒店(人民广场店),"112.159854,32.054606",4.5,112.159854,32.054606
717,伍家岗区,其他,2022/12/30 11:18,沿江大道188号新外滩领馆1、21-26层,凯盛美季酒店(宜昌滨江店),"111.327113,30.664033",4.5,111.327113,30.664033
717,宜都市,其他,2022/12/30 11:21,西湖二路,小西湖花园酒店,"111.423401,30.386487",4.5,111.423401,30.386487
718,恩施市,自助早餐,2022/12/30 11:04,施州大道(机场路)施州雅苑B座18楼,恩施晶都商务宾馆,"109.481166,30.275629",4.6,109.481166,30.275629
713,黄州区,自助早餐,2022/12/31 0:33,宝塔大道21号,觅·天外天精品酒店(黄冈宝塔路旗舰店),"114.877173,30.439552",4.6,114.877173,30.439552
714,黄石港区,自助早餐,2022/12/30 9:16,黄石港区广场路21号,佶迦酒店(黄石广场路店),"115.092112,30.211311",4.6,115.092112,30.211311
716,沙市区,宵夜,2022/12/30 17:14,北湖路24-3号,致馨栀子花开酒店(荆州文湖一店),"112.240587,30.326530",4.6,112.240587,30.32653
716,荆州区,宵夜,2022/12/30 15:47,江津西路401号荆银雅苑,柏曼酒店(荆州江津西路万达广场店),"112.229477,30.343132",4.6,112.229477,30.343132
719,茅箭区,自助餐,2022/12/31 0:30,朝阳中路31号(邮电街桥头),汉庭酒店(十堰人民广场店),"110.782555,32.646188",4.6,110.782555,32.646188
1728,天门市,小吃街,2022/12/31 0:06,公旺大道1号,影迪酒店,"113.152780,30.645622",4.6,113.15278,30.645622
712,孝南区,小吃街,2022/12/31 0:29,黄陂大道17号,万事达国际酒店,"113.936211,30.946166",4.6,113.936211,30.946166
27,武昌区,小吃街,2022/12/30 9:07,友谊大道三角花园A1栋,城市便捷酒店(武汉湖北大学店),"114.334310,30.582419",4.6,114.33431,30.582419
27,洪山区,小吃街,2022/12/31 0:32,徐东团结大道1053号,武汉玉希商务酒店,"114.365159,30.593396",4.6,114.365159,30.593396
27,江夏区,自助早餐,2022/12/31 0:28,高新大道818号高科医疗器械园内,武汉高科园酒店,"114.529558,30.485294",4.6,114.529558,30.485294
27,江岸区,自助早餐,2022/12/30 9:04,渣家左路296号,如家酒店(武汉循礼门地铁站江汉北路店),"114.282489,30.589446",4.6,114.282489,30.589446
27,武昌区,自助早餐,2022/12/30 9:05,民主路21号,丽锦宾馆(武汉黄鹤楼户部巷店),"114.295642,30.547167",4.6,114.295642,30.547167
27,洪山区,自助早餐,2022/12/29 4:42,东湖新技术开发区光谷街3号1栋商业楼B1单元1层039室,艾尚优家酒店式公寓(武汉凯瑞卡尔光谷步行街分店),"114.401920,30.504532",4.6,114.40192,30.504532
27,武昌区,自助早餐,2022/12/30 22:45,和平大道793号,维也纳酒店(武汉二七长江大桥余家头店),"114.356431,30.612668",4.6,114.356431,30.612668
27,洪山区,自助早餐,2022/12/30 9:08,"八一路216号附三号(武汉大学正门斜对面100米,樱花大厦旁)",华亿连锁酒店(武汉大学店),"114.355453,30.533983",4.6,114.355453,30.533983
27,硚口区,小吃街,2022/12/30 9:18,汉西三路81号,城市便捷酒店(武汉汉西三路店),"114.220120,30.600622",4.6,114.22012,30.600622
27,江汉区,自助早餐,2022/12/30 23:38,三民路49号(六渡桥地铁站B口步行170米),城市便捷酒店(武汉江汉路六渡桥地铁站店),"114.284824,30.573753",4.6,114.284824,30.573753
27,江岸区,小吃街,2022/12/31 0:33,江汉北路渣家村1号(二十八中学对面),武汉万家都市宾馆(江汉路步行街循礼门地铁站店),"114.282325,30.587902",4.6,114.282325,30.587902
717,猇亭区,其他,2022/12/30 20:03,金猇路67号,隆桥大酒店,"111.428177,30.533981",4.6,111.428177,30.533981
717,伍家岗区,其他,2022/12/31 0:29,东山大道314号,格林豪泰酒店(宜昌万达滨江店),"111.317544,30.676319",4.6,111.317544,30.676319
717,枝江市,其他,2022/12/30 20:33,迎宾大道92号,枝江官邸商务酒店,"111.736644,30.426697",4.6,111.736644,30.426697
717,当阳市,其他,2022/12/30 15:05,长坂路67号,丽橙酒店·趣(当阳长坂坡客运站店),"111.783134,30.822571",4.6,111.783134,30.822571
718,恩施市,自助早餐,2022/12/30 8:28,"施州大道141号(近金安大厦,滨江花园南1门旁)",恩施泰合商务宾馆,"109.485764,30.288704",4.7,109.485764,30.288704
716,沙市区,宵夜,2022/12/31 0:25,"红星北路25号原金隆大厦,红星北路与杨林堤路交汇处",城市便捷酒店(荆州红星路店),"112.269190,30.306469",4.7,112.26919,30.306469
27,江汉区,自助早餐,2022/12/30 8:10,长港路常青五路1号(长港路地铁站C口步行470米),汉庭酒店(武汉民航小区店),"114.241352,30.625839",4.7,114.241352,30.625839
27,江岸区,自助早餐,2022/12/30 23:06,解放大道1797号(解放中学旁),7天连锁酒店(武汉天地解放公园店),"114.302087,30.603731",4.7,114.302087,30.603731
27,洪山区,自助早餐,2022/12/31 0:16,雄楚大道1025号立信富达电动车批发城,雅斯特酒店(武汉光谷步行街店),"114.402724,30.498157",4.7,114.402724,30.498157
27,硚口区,自助早餐,2022/12/31 0:22,长丰大道68号1-4层,丽枫酒店(武汉宜家园博园店),"114.183006,30.611075",4.7,114.183006,30.611075
27,武昌区,小吃街,2022/12/31 0:18,彭刘杨路232号首义园2区26号,俪居美伦酒店(武汉黄鹤楼首义广场店),"114.303813,30.538204",4.7,114.303813,30.538204
27,黄陂区,小吃街,2022/12/30 9:08,汉口北大道汉北广场165号4幢,维也纳酒店(武汉汉口北大道四季美农贸城店),"114.348863,30.717533",4.7,114.348863,30.717533
27,武昌区,小吃街,2022/12/30 9:03,中山路497号(武昌火车站地铁站G1口步行480米),汉庭酒店(武昌火车站店),"114.318233,30.536886",4.7,114.318233,30.536886
27,东西湖区,自助早餐,2022/12/30 9:04,东吴大道747号(东吴大道地铁站A口步行350米),武汉鹏程招待所,"114.131138,30.625718",4.7,114.131138,30.625718
27,江夏区,自助早餐,2022/12/30 9:20,熊廷弼街特8号高鑫名居大商业7,品荟精品酒店,"114.336325,30.352056",4.7,114.336325,30.352056
717,伍家岗区,其他,2022/12/29 13:55,夷陵大道131号(天街娱乐城一楼院内),宜昌金岛假日酒店(胜利四路店),"111.299908,30.690147",4.7,111.299908,30.690147
27,江汉区,自助早餐,2022/12/31 0:18,财神商业广场南面(汉口火车站地铁站D2口步行390米),速8酒店(武汉汉口火车站店),"114.258385,30.616728",4.8,114.258385,30.616728
27,黄陂区,自助早餐,2022/12/30 9:09,盘龙城经济开发区珑璟轩A2-1-109商,武汉璟珵悦居酒店,"114.249584,30.713118",4.8,114.249584,30.713118
27,江汉区,小吃街,2022/12/30 2:47,汉口火车站D1出口怡景商务大厦B座13楼1304,武汉怡景果然主题酒店(汉口火车站店),"114.254273,30.612906",4.8,114.254273,30.612906
27,武昌区,小吃街,2022/12/31 0:10,白沙洲大道武泰闸堤街2号(万隆广场旁),汉庭酒店(武昌火车站起义门店),"114.305354,30.519419",4.8,114.305354,30.519419
710,宜城市,其他,2022/12/31 0:17,自忠路126号,宜城蓝波湾温泉假日酒店,"112.265895,31.717553",4.8,112.265895,31.717553
27,武昌区,自助早餐,2022/12/30 9:13,首义路街办事处首义路47号2栋,运7酒店(黄鹤楼首义路地铁站店),"114.309971,30.539087",4.9,114.309971,30.539087
27,江汉区,小吃街,2022/12/30 19:20,"万松园横路58号(近青年路地铁A出口,航空路小学正对面)",帆鸣主题酒店(武汉同济医院青年路地铁站店),"114.262160,30.588212",4.9,114.26216,30.588212
715,咸安区,小吃街,2022/12/30 5:23,长安大道29号,百事达电竞酒店,"114.290196,29.863940",5,114.290196,29.86394
27,洪山区,自助早餐,2022/12/30 2:35,杨园南路华腾园6号商业楼(广华医院附近),钻石6+1假日宾馆(杨园南路欢乐大道店),"114.362530,30.582782",5,114.36253,30.582782
